code,name,longitude,latitude
1101054,서울특별시 종로구 삼청동,126.9810908,37.57976226
1101055,서울특별시 종로구 부암동,126.9616078,37.60304252
1101057,서울특별시 종로구 무악동,126.9587839,37.57680168
1101058,서울특별시 종로구 교남동,126.9670956,37.56768204
1101056,서울특별시 종로구 평창동,126.9574515,37.61799022
1101053,서울특별시 종로구 사직동,126.9741172,37.57037275
1101060,서울특별시 종로구 가회동,126.987006,37.58290692
1101061,서울특별시 종로구 종로1·2·3·4가동,126.9779285,37.57095701
1101064,서울특별시 종로구 이화동,126.9994743,37.57852163
1101069,서울특별시 종로구 창신3동,127.0151138,37.58017268
1101063,서울특별시 종로구 종로5·6가동,126.978096,37.56984189
1101068,서울특별시 종로구 창신2동,127.014981,37.57994364
1101071,서울특별시 종로구 숭인2동,127.0159279,37.5809769
1101072,서울특별시 종로구 청운효자동,126.9634002,37.58022966
1101073,서울특별시 종로구 혜화동,126.9976869,37.58895081
1101070,서울특별시 종로구 숭인1동,127.0159279,37.5809769
1101067,서울특별시 종로구 창신1동,127.0151386,37.58025922
1102052,서울특별시 중구 소공동,126.9733001,37.56614563
1102059,서울특별시 중구 광희동,127.0083176,37.56394514
1102055,서울특별시 중구 명동,126.9877134,37.56177433
1102054,서울특별시 중구 회현동,126.9826502,37.56103229
1102067,서울특별시 중구 황학동,127.0206602,37.56855608
1102065,서울특별시 중구 신당5동,127.0171521,37.55931942
1102058,서울특별시 중구 장충동,127.0005333,37.56143269
1102068,서울특별시 중구 중림동,126.9640755,37.55428201
1102060,서울특별시 중구 을지로동,126.9961922,37.56760726
1102057,서울특별시 중구 필동,127.0005333,37.56143269
1103051,서울특별시 용산구 후암동,126.9815742,37.55042469
1102069,서울특별시 중구 신당동,127.0151859,37.56424067
1102071,서울특별시 중구 약수동,127.013054,37.55684063
1103057,서울특별시 용산구 원효로2동,126.9578139,37.53434868
1102070,서울특별시 중구 다산동,127.013054,37.55684063
1103053,서울특별시 용산구 남영동,126.9727447,37.55151766
1102073,서울특별시 중구 동화동,127.013054,37.55684063
1103058,서울특별시 용산구 효창동,126.9597807,37.5435614
1103052,서울특별시 용산구 용산2가동,126.9855273,37.53059144
1102072,서울특별시 중구 청구동,127.013054,37.55684063
1103069,서울특별시 용산구 서빙고동,126.9957871,37.52358498
1103059,서울특별시 용산구 용문동,126.9556166,37.53878158
1103064,서울특별시 용산구 이촌2동,126.9568394,37.52642567
1103072,서울특별시 용산구 원효로1동,126.9691998,37.53714128
1103071,서울특별시 용산구 청파동,126.9676036,37.5433007
1103063,서울특별시 용산구 이촌1동,126.9561274,37.52669335
1103066,서울특별시 용산구 이태원2동,126.995408,37.54112645
1103073,서울특별시 용산구 한강로동,126.9599465,37.52805154
1103070,서울특별시 용산구 보광동,127.0005741,37.52688166
1103074,서울특별시 용산구 한남동,127.0063494,37.53746041
1103065,서울특별시 용산구 이태원1동,126.9959686,37.54134681
1104057,서울특별시 성동구 행당2동,127.038918,37.56275138
1104062,서울특별시 성동구 금호4가동,127.0257607,37.54520841
1104059,서울특별시 성동구 금호1가동,127.0265454,37.55296222
1104054,서울특별시 성동구 마장동,127.0406041,37.56712409
1104052,서울특별시 성동구 왕십리2동,127.0282421,37.56430104
1104056,서울특별시 성동구 행당1동,127.038918,37.56275138
1104065,서울특별시 성동구 성수1가1동,127.041551,37.54303055
1104058,서울특별시 성동구 응봉동,127.0334962,37.55054428
1104066,서울특별시 성동구 성수1가2동,127.041551,37.54303055
1104055,서울특별시 성동구 사근동,127.0348084,37.55915152
1104073,서울특별시 성동구 옥수동,127.0149615,37.5421221
1104071,서울특별시 성동구 왕십리도선동,127.0246784,37.56861754
1104068,서울특별시 성동구 성수2가3동,127.056985,37.53964824
1105053,서울특별시 광진구 화양동,127.0730799,37.54361035
1104070,서울특별시 성동구 용답동,127.0616091,37.55420491
1104067,서울특별시 성동구 성수2가1동,127.056985,37.53964824
1105054,서울특별시 광진구 군자동,127.073825,37.55327456
1104072,서울특별시 성동구 금호2·3가동,127.0412851,37.55063491
1105055,서울특별시 광진구 중곡1동,127.0858764,37.56829195
1105062,서울특별시 광진구 구의3동,127.1005359,37.55368191
1104069,서울특별시 성동구 송정동,127.0616091,37.55420491
1105060,서울특별시 광진구 구의1동,127.1024701,37.55520606
1105057,서울특별시 광진구 중곡3동,127.0858764,37.56829195
1105059,서울특별시 광진구 능동,127.0826352,37.55113576
1105063,서울특별시 광진구 광장동,127.1047856,37.54773181
1105056,서울특별시 광진구 중곡2동,127.0858764,37.56829195
1105061,서울특별시 광진구 구의2동,127.1024701,37.55520606
1105065,서울특별시 광진구 자양2동,127.0700335,37.53928722
1105064,서울특별시 광진구 자양1동,127.0702075,37.53968601
1106081,서울특별시 동대문구 용신동,127.0363952,37.57628963
1105058,서울특별시 광진구 중곡4동,127.0858764,37.56829195
1106073,서울특별시 동대문구 휘경2동,127.0688617,37.59333334
1105067,서울특별시 광진구 자양4동,127.0686621,37.53810232
1106082,서울특별시 동대문구 제기동,127.0371359,37.5847843
1106072,서울특별시 동대문구 휘경1동,127.0692826,37.59392394
1105066,서울특별시 광진구 자양3동,127.0693133,37.53784615
1106080,서울특별시 동대문구 청량리동,127.0461507,37.58831358
1106083,서울특별시 동대문구 전농1동,127.0684728,37.58138323
1107052,서울특별시 중랑구 면목2동,127.1003506,37.58949888
1106071,서울특별시 동대문구 회기동,127.0509581,37.59453657
1106084,서울특별시 동대문구 전농2동,127.0681356,37.58040727
1106090,서울특별시 동대문구 이문2동,127.0702899,37.60620176
1107054,서울특별시 중랑구 면목4동,127.09973,37.58970565
1106089,서울특별시 동대문구 이문1동,127.0702899,37.60620176
1106087,서울특별시 동대문구 장안1동,127.0700347,37.57790821
1106086,서울특별시 동대문구 답십리2동,127.0649265,37.57382728
1106091,서울특별시 동대문구 답십리1동,127.0670621,37.57443775
1107055,서울특별시 중랑구 면목5동,127.0999736,37.58803183
1107068,서울특별시 중랑구 망우3동,127.111931,37.60979524
1107057,서울특별시 중랑구 면목7동,127.1015002,37.58859231
1107064,서울특별시 중랑구 묵1동,127.0784998,37.61248742
1106088,서울특별시 동대문구 장안2동,127.0700347,37.57790821
1107069,서울특별시 중랑구 신내1동,127.1142796,37.61259008
1107062,서울특별시 중랑구 중화2동,127.0866273,37.6019582
1107060,서울특별시 중랑구 상봉2동,127.0938835,37.60409323
1107059,서울특별시 중랑구 상봉1동,127.093545,37.60399709
1107070,서울특별시 중랑구 신내2동,127.114898,37.61272649
1107065,서울특별시 중랑구 묵2동,127.0784998,37.61248742
1108062,서울특별시 성북구 정릉1동,127.0092338,37.59710871
1107071,서울특별시 중랑구 면목본동,127.0904337,37.5819082
1107061,서울특별시 중랑구 중화1동,127.0866273,37.6019582
1108060,서울특별시 성북구 안암동,127.0214784,37.58870137
1108063,서울특별시 성북구 정릉2동,127.0092338,37.59710871
1107073,서울특별시 중랑구 망우본동,127.1070746,37.60039173
1108059,서울특별시 성북구 돈암2동,127.0294721,37.60368291
1107072,서울특별시 중랑구 면목3·8동,127.09973,37.58970565
1108061,서울특별시 성북구 보문동,127.0163263,37.58440565
1108064,서울특별시 성북구 정릉3동,127.0181949,37.60558384
1108065,서울특별시 성북구 정릉4동,127.0183316,37.60503644
1108078,서울특별시 성북구 장위3동,127.0623152,37.61421128
1108058,서울특별시 성북구 돈암1동,127.0261741,37.60321436
1108076,서울특별시 성북구 장위1동,127.0613734,37.6132666
1108081,서울특별시 성북구 성북동,127.0035905,37.58955132
1108068,서울특별시 성북구 길음2동,127.0395089,37.60417072
1108066,서울특별시 성북구 길음1동,127.0302262,37.6100978
1108082,서울특별시 성북구 삼선동,127.0082393,37.58437095
1108072,서울특별시 성북구 월곡2동,127.0468827,37.60606965
1108083,서울특별시 성북구 동선동,127.0172293,37.59627295
1108077,서울특별시 성북구 장위2동,127.0621736,37.61380018
1109062,서울특별시 강북구 번3동,127.0375597,37.62920563
1109064,서울특별시 강북구 수유2동,127.0226101,37.63770959
1108071,서울특별시 성북구 월곡1동,127.0395089,37.60417072
1109065,서울특별시 강북구 수유3동,127.0226101,37.63770959
1108084,서울특별시 성북구 종암동,127.0332363,37.59656592
1108085,서울특별시 성북구 석관동,127.0612268,37.60790931
1109069,서울특별시 강북구 삼양동,127.0209401,37.62191076
1109061,서울특별시 강북구 번2동,127.0375597,37.62920563
1109075,서울특별시 강북구 인수동,127.0048047,37.6370593
1109070,서울특별시 강북구 미아동,127.0209401,37.62191076
1110052,서울특별시 도봉구 쌍문2동,127.0379442,37.66043592
1109063,서울특별시 강북구 수유1동,127.0219107,37.63771536
1109060,서울특별시 강북구 번1동,127.0375597,37.62920563
1109071,서울특별시 강북구 송중동,127.0209401,37.62191076
1110053,서울특별시 도봉구 쌍문3동,127.0379442,37.66043592
1109072,서울특별시 강북구 송천동,127.0209401,37.62191076
1109074,서울특별시 강북구 우이동,127.0048047,37.6370593
1110061,서울특별시 도봉구 창3동,127.0445802,37.64631001
1110054,서울특별시 도봉구 쌍문4동,127.0379442,37.66043592
1110063,서울특별시 도봉구 창5동,127.0445802,37.64631001
1110055,서울특별시 도봉구 방학1동,127.0484266,37.66838123
1109073,서울특별시 강북구 삼각산동,127.0209401,37.62191076
1110056,서울특별시 도봉구 방학2동,127.0484266,37.66838123
1110064,서울특별시 도봉구 도봉1동,127.0477882,37.69223188
1110051,서울특별시 도봉구 쌍문1동,127.0379442,37.66043592
1110060,서울특별시 도봉구 창2동,127.0445802,37.64631001
1111059,서울특별시 노원구 하계2동,127.0805301,37.64049707
1110057,서울특별시 도봉구 방학3동,127.0484266,37.66838123
1111061,서울특별시 노원구 중계1동,127.0894027,37.65231194
1110065,서울특별시 도봉구 도봉2동,127.0494035,37.69021663
1110059,서울특별시 도봉구 창1동,127.0445802,37.64631001
1111052,서울특별시 노원구 월계2동,127.0699147,37.62255459
1111051,서울특별시 노원구 월계1동,127.0684253,37.62417009
1111064,서울특별시 노원구 중계4동,127.0722769,37.66636668
1110062,서울특별시 도봉구 창4동,127.0445802,37.64631001
1111058,서울특별시 노원구 하계1동,127.0814786,37.64027357
1111053,서울특별시 노원구 월계3동,127.069173,37.62178187
1111076,서울특별시 노원구 상계3·4동,127.0776408,37.68201114
1111078,서울특별시 노원구 중계2·3동,127.0895587,37.65191441
1111065,서울특별시 노원구 상계1동,127.0773061,37.68227339
1111056,서울특별시 노원구 공릉2동,127.1032308,37.6204143
1111066,서울특별시 노원구 상계2동,127.0768164,37.68210497
1111069,서울특별시 노원구 상계5동,127.0836131,37.67498363
1111079,서울특별시 노원구 공릉1동,127.1042908,37.62014469
1111074,서울특별시 노원구 상계10동,127.0903867,37.68029911
1111060,서울특별시 노원구 중계본동,127.0811684,37.65094633
1111072,서울특별시 노원구 상계8동,127.089489,37.68060658
1112059,서울특별시 은평구 응암1동,126.934359,37.60088268
1112065,서울특별시 은평구 신사1동,126.9112284,37.60161806
1112051,서울특별시 은평구 녹번동,126.9319127,37.60424909
1111073,서울특별시 노원구 상계9동,127.0900531,37.68066075
1112052,서울특별시 은평구 불광1동,126.9391443,37.61319421
1112055,서울특별시 은평구 갈현1동,126.9198621,37.62677439
1112066,서울특별시 은평구 신사2동,126.9145622,37.5993402
1112058,서울특별시 은평구 대조동,126.9226528,37.61263416
1111077,서울특별시 노원구 상계6·7동,127.0850725,37.67528366
1112056,서울특별시 은평구 갈현2동,126.9198621,37.62677439
1113052,서울특별시 서대문구 천연동,126.9539815,37.57413913
1113064,서울특별시 서대문구 홍제3동,126.9564622,37.59701385
1112067,서울특별시 은평구 증산동,126.9055893,37.58317152
1112057,서울특별시 은평구 구산동,126.9082417,37.61217081
1112068,서울특별시 은평구 수색동,126.8950292,37.58497344
1112071,서울특별시 은평구 진관동,126.9354166,37.64228785
1113065,서울특별시 서대문구 홍제2동,126.9566187,37.59860399
1112074,서울특별시 은평구 역촌동,126.9151674,37.60507371
1113073,서울특별시 서대문구 충현동,126.9675493,37.5635672
1113075,서울특별시 서대문구 신촌동,126.9341931,37.55881377
1112072,서울특별시 은평구 불광2동,126.9386669,37.61050674
1112060,서울특별시 은평구 응암2동,126.9346644,37.60010568
1113066,서울특별시 서대문구 홍은1동,126.9559069,37.5990489
1112073,서울특별시 은평구 응암3동,126.9334243,37.60039177
1113068,서울특별시 서대문구 홍은2동,126.9558231,37.59905089
1113069,서울특별시 서대문구 남가좌1동,126.9230544,37.58448684
1113076,서울특별시 서대문구 연희동,126.9328985,37.5725346
1113072,서울특별시 서대문구 북가좌2동,126.9190522,37.58232133
1114069,서울특별시 마포구 망원1동,126.9088327,37.55699376
1114071,서울특별시 마포구 연남동,126.9226282,37.56263432
1113062,서울특별시 서대문구 홍제1동,126.9565184,37.59873182
1114059,서울특별시 마포구 용강동,126.9503989,37.5395533
1113070,서울특별시 서대문구 남가좌2동,126.9230523,37.58439689
1113071,서울특별시 서대문구 북가좌1동,126.9203231,37.58207583
1114061,서울특별시 마포구 염리동,126.9529935,37.5473878
1114060,서울특별시 마포구 대흥동,126.9380114,37.55402004
1115051,서울특별시 양천구 목1동,126.8758257,37.53677908
1114072,서울특별시 마포구 성산1동,126.9155831,37.56591032
1115053,서울특별시 양천구 목3동,126.8758257,37.53677908
1113074,서울특별시 서대문구 북아현동,126.9474938,37.56133852
1114068,서울특별시 마포구 합정동,126.9096132,37.54773369
1114073,서울특별시 마포구 성산2동,126.9155831,37.56591032
1114066,서울특별시 마포구 서교동,126.9239551,37.55831827
1114075,서울특별시 마포구 도화동,126.9435403,37.53683549
1114063,서울특별시 마포구 신수동,126.9305331,37.54325664
1115054,서울특별시 양천구 목4동,126.8758257,37.53677908
1114074,서울특별시 마포구 상암동,126.8729106,37.57147341
1115063,서울특별시 양천구 신월7동,126.829086,37.54485843
1115065,서울특별시 양천구 신정2동,126.8708816,37.52214677
1114078,서울특별시 마포구 아현동,126.9529935,37.5473878
1114070,서울특별시 마포구 망원2동,126.9088327,37.55699376
1115057,서울특별시 양천구 신월1동,126.827951,37.543837
1115059,서울특별시 양천구 신월3동,126.8292357,37.54521801
1114077,서울특별시 마포구 공덕동,126.9503989,37.5395533
1114076,서울특별시 마포구 서강동,126.9299746,37.54983519
1115066,서울특별시 양천구 신정3동,126.8708816,37.52214677
1115058,서울특별시 양천구 신월2동,126.8281109,37.54521009
1116053,서울특별시 강서구 등촌2동,126.8478658,37.56473189
1115052,서울특별시 양천구 목2동,126.8758257,37.53677908
1116055,서울특별시 강서구 화곡본동,126.8441304,37.54216688
1115071,서울특별시 양천구 목5동,126.8758257,37.53677908
1115062,서울특별시 양천구 신월6동,126.829086,37.54485843
1115069,서울특별시 양천구 신정6동,126.8708816,37.52214677
1115061,서울특별시 양천구 신월5동,126.8297218,37.54499809
1116057,서울특별시 강서구 화곡2동,126.8445747,37.5525379
1115060,서울특별시 양천구 신월4동,126.8292357,37.54521801
1115064,서울특별시 양천구 신정1동,126.8708816,37.52214677
1116069,서울특별시 강서구 공항동,126.7874588,37.56622445
1116066,서울특별시 강서구 가양3동,126.8569014,37.56375822
1115070,서울특별시 양천구 신정7동,126.8708816,37.52214677
1116061,서울특별시 강서구 화곡6동,126.8445747,37.5525379
1116052,서울특별시 강서구 등촌1동,126.8478658,37.56473189
1116058,서울특별시 강서구 화곡3동,126.8445747,37.5525379
1116051,서울특별시 강서구 염창동,126.8498191,37.56794968
1115072,서울특별시 양천구 신정4동,126.8708816,37.52214677
1116070,서울특별시 강서구 방화1동,126.8089853,37.55261995
1117056,서울특별시 구로구 구로5동,126.8896586,37.5055605
1116054,서울특별시 강서구 등촌3동,126.8478658,37.56473189
1117054,서울특별시 구로구 구로3동,126.8847463,37.50466619
1116059,서울특별시 강서구 화곡4동,126.8445747,37.5525379
1116073,서울특별시 강서구 화곡1동,126.8445747,37.5525379
1116065,서울특별시 강서구 가양2동,126.8569014,37.56375822
1116071,서울특별시 강서구 방화2동,126.8064634,37.58660444
1116064,서울특별시 강서구 가양1동,126.8574373,37.56466899
1116063,서울특별시 강서구 화곡8동,126.8445747,37.5525379
1116067,서울특별시 강서구 발산1동,126.8302779,37.57010337
1117061,서울특별시 구로구 고척1동,126.8574769,37.50948629
1117070,서울특별시 구로구 가리봉동,126.8880273,37.4830544
1117072,서울특별시 구로구 개봉1동,126.8444509,37.50512169
1117065,서울특별시 구로구 개봉3동,126.8445548,37.50437315
1116072,서울특별시 강서구 방화3동,126.819625,37.58981082
1117052,서울특별시 구로구 구로1동,126.8922304,37.50808135
1117062,서울특별시 구로구 고척2동,126.8574769,37.50948629
1117051,서울특별시 구로구 신도림동,126.8829518,37.51059452
1116074,서울특별시 강서구 우장산동,126.8441304,37.54216688
1118051,서울특별시 금천구 가산동,126.8865564,37.47548176
1117055,서울특별시 구로구 구로4동,126.889879,37.50570535
1118061,서울특별시 금천구 시흥5동,126.909447,37.46327796
1118059,서울특별시 금천구 시흥3동,126.912804,37.4623332
1118054,서울특별시 금천구 독산3동,126.90814,37.47983767
1117069,서울특별시 구로구 수궁동,126.8278251,37.50100162
1117064,서울특별시 구로구 개봉2동,126.8444509,37.50512169
1118052,서울특별시 금천구 독산1동,126.90814,37.47983767
1117067,서울특별시 구로구 오류1동,126.8366009,37.49862207
1117068,서울특별시 구로구 오류2동,126.8391716,37.48112616
1117071,서울특별시 구로구 구로2동,126.8915687,37.50709768
1119054,서울특별시 영등포구 여의동,126.9294419,37.52849122
1118058,서울특별시 금천구 시흥2동,126.9100733,37.46238935
1119068,서울특별시 영등포구 신길6동,126.9220166,37.51451282
1119066,서울특별시 영등포구 신길4동,126.9223564,37.51486223
1118053,서울특별시 금천구 독산2동,126.90814,37.47983767
1119061,서울특별시 영등포구 양평1동,126.8836545,37.52332332
1118055,서울특별시 금천구 독산4동,126.90814,37.47983767
1118057,서울특별시 금천구 시흥1동,126.9113942,37.46352163
1118060,서울특별시 금천구 시흥4동,126.9103324,37.46112795
1119055,서울특별시 영등포구 당산1동,126.8973704,37.52623042
1119069,서울특별시 영등포구 신길7동,126.9224923,37.51522782
1120053,서울특별시 동작구 상도1동,126.9521518,37.50743764
1119065,서울특별시 영등포구 신길3동,126.9231182,37.51430255
1119076,서울특별시 영등포구 문래동,126.8842939,37.52004227
1119056,서울특별시 영등포구 당산2동,126.9024908,37.53475943
1119072,서울특별시 영등포구 대림3동,126.8968213,37.50590683
1119062,서울특별시 영등포구 양평2동,126.8901876,37.54271514
1119063,서울특별시 영등포구 신길1동,126.9244418,37.51518387
1119067,서울특별시 영등포구 신길5동,126.9012505,37.49706665
1119070,서울특별시 영등포구 대림1동,126.8968213,37.50590683
1120070,서울특별시 동작구 신대방2동,126.9112235,37.48893203
1119075,서울특별시 영등포구 도림동,126.8993327,37.50821049
1120054,서울특별시 동작구 상도2동,126.9515171,37.50751549
1120068,서울특별시 동작구 대방동,126.9291038,37.50674862
1120063,서울특별시 동작구 사당1동,126.9822386,37.48747656
1119074,서울특별시 영등포구 영등포동,126.9036488,37.51785639
1120055,서울특별시 동작구 상도3동,126.9515171,37.50751549
1119071,서울특별시 영등포구 대림2동,126.8968213,37.50590683
1121063,서울특별시 관악구 남현동,126.9799613,37.46306021
1120052,서울특별시 동작구 노량진2동,126.9450488,37.5157948
1119073,서울특별시 영등포구 영등포본동,126.9061341,37.51339757
1120067,서울특별시 동작구 사당5동,126.9822386,37.48747656
1120071,서울특별시 동작구 흑석동,126.9629631,37.50527208
1121061,서울특별시 관악구 중앙동,126.9569915,37.47505523
1121052,서울특별시 관악구 보라매동,126.9569915,37.47505523
1120066,서울특별시 동작구 사당4동,126.9822386,37.48747656
1121079,서울특별시 관악구 성현동,126.9569915,37.47505523
1120072,서울특별시 동작구 노량진1동,126.9466413,37.51632425
1120056,서울특별시 동작구 상도4동,126.9515171,37.50751549
1120069,서울특별시 동작구 신대방1동,126.9112235,37.48893203
1120065,서울특별시 동작구 사당3동,126.9822386,37.48747656
1121058,서울특별시 관악구 낙성대동,126.9569915,37.47505523
1121064,서울특별시 관악구 서원동,126.9346071,37.4630596
1121073,서울특별시 관악구 대학동,126.9346071,37.4630596
1121068,서울특별시 관악구 신사동,126.9346071,37.4630596
1121057,서울특별시 관악구 행운동,126.9569915,37.47505523
1121065,서울특별시 관악구 신원동,126.9346071,37.4630596
1121062,서울특별시 관악구 인헌동,126.9569915,37.47505523
1122056,서울특별시 서초구 반포본동,127.0023271,37.5046175
1120073,서울특별시 동작구 사당2동,126.9822386,37.48747656
1121054,서울특별시 관악구 청림동,126.9569915,37.47505523
1121072,서울특별시 관악구 조원동,126.9346071,37.4630596
1121080,서울특별시 관악구 청룡동,126.9569915,37.47505523
1121083,서울특별시 관악구 미성동,126.9346071,37.4630596
1121071,서울특별시 관악구 난향동,126.9346071,37.4630596
1122054,서울특별시 서초구 서초4동,127.0339508,37.48279427
1121081,서울특별시 관악구 난곡동,126.9346071,37.4630596
1122066,서울특별시 서초구 양재1동,127.0377191,37.48482894
1121078,서울특별시 관악구 은천동,126.9569915,37.47505523
1121066,서울특별시 관악구 서림동,126.9346071,37.4630596
1121069,서울특별시 관악구 신림동,126.9346071,37.4630596
1122053,서울특별시 서초구 서초3동,127.0339508,37.48279427
1122057,서울특별시 서초구 반포1동,126.9973099,37.50680057
1122060,서울특별시 서초구 반포4동,126.9944935,37.50489507
1122052,서울특별시 서초구 서초2동,127.0339508,37.48279427
1122058,서울특별시 서초구 반포2동,126.9945516,37.50542083
1122064,서울특별시 서초구 방배3동,126.9933075,37.49418338
1123064,서울특별시 강남구 역삼1동,127.0255701,37.50454246
1122055,서울특별시 서초구 잠원동,127.0098641,37.51493466
1121082,서울특별시 관악구 삼성동,126.9346071,37.4630596
1122051,서울특별시 서초구 서초1동,127.0339508,37.48279427
1122063,서울특별시 서초구 방배2동,126.9933075,37.49418338
1123052,서울특별시 강남구 논현1동,127.0201884,37.51586118
1122067,서울특별시 서초구 양재2동,127.0479721,37.44499174
1122068,서울특별시 서초구 내곡동,127.0541792,37.46311561
1123060,서울특별시 강남구 대치1동,127.0779333,37.49816362
1122062,서울특별시 서초구 방배1동,126.9933075,37.49418338
1123076,서울특별시 강남구 세곡동,127.1114976,37.47170903
1122065,서울특별시 서초구 방배4동,126.9910539,37.49366022
1122059,서울특별시 서초구 반포3동,127.0098641,37.51493466
1123059,서울특별시 강남구 삼성2동,127.0427449,37.51702934
1122061,서울특별시 서초구 방배본동,126.9939851,37.47912809
1123068,서울특별시 강남구 개포1동,127.0729616,37.49417375
1123066,서울특별시 강남구 도곡1동,127.0493607,37.48978199
1123065,서울특별시 강남구 역삼2동,127.0255701,37.50454246
1123074,서울특별시 강남구 일원2동,127.0657834,37.49885733
1123058,서울특별시 강남구 삼성1동,127.0417954,37.51699251
1124056,서울특별시 송파구 마천2동,127.1448228,37.50261942
1123063,서울특별시 강남구 대치4동,127.0747584,37.50018971
1123073,서울특별시 강남구 일원1동,127.0983199,37.48551756
1123053,서울특별시 강남구 논현2동,127.021083,37.51618628
1123051,서울특별시 강남구 신사동,127.0227218,37.52881009
1123080,서울특별시 강남구 개포2동,127.0827589,37.48789678
1123077,서울특별시 강남구 압구정동,127.0286102,37.5227125
1123078,서울특별시 강남구 청담동,127.052135,37.52540984
1123072,서울특별시 강남구 일원본동,127.0983199,37.48551756
1124054,서울특별시 송파구 거여2동,127.1442686,37.49848328
1124066,서울특별시 송파구 가락1동,127.1230669,37.50304483
1123075,서울특별시 강남구 수서동,127.0983199,37.48551756
1123071,서울특별시 강남구 개포4동,127.0729616,37.49417375
1123067,서울특별시 강남구 도곡2동,127.0493607,37.48978199
1124060,서울특별시 송파구 오금동,127.1343221,37.50378594
1124057,서울특별시 송파구 방이1동,127.1135288,37.51226203
1124053,서울특별시 송파구 거여1동,127.1449376,37.49887138
1124058,서울특별시 송파구 방이2동,127.1127358,37.51096301
1124081,서울특별시 송파구 장지동,127.1223503,37.48535788
1124052,서울특별시 송파구 풍납2동,127.1139397,37.54241294
1124064,서울특별시 송파구 삼전동,127.0913061,37.50165971
1124051,서울특별시 송파구 풍납1동,127.1139397,37.54241294
1123079,서울특별시 강남구 대치2동,127.0768799,37.49763039
1124055,서울특별시 송파구 마천1동,127.1448576,37.50340684
1124067,서울특별시 송파구 가락2동,127.1247107,37.5039164
1124063,서울특별시 송파구 석촌동,127.1030165,37.50317288
1125061,서울특별시 강동구 천호1동,127.139748,37.55042966
1124071,서울특별시 송파구 잠실본동,127.085214,37.51124107
1124062,서울특별시 송파구 송파2동,127.1099255,37.50708421
1124068,서울특별시 송파구 문정1동,127.1302934,37.49062122
1124079,서울특별시 송파구 잠실2동,127.0696818,37.51427424
1124061,서울특별시 송파구 송파1동,127.1091639,37.50642753
1124059,서울특별시 송파구 오륜동,127.1272223,37.51632496
1124065,서울특별시 송파구 가락본동,127.1191525,37.49423924
1124082,서울특별시 송파구 위례동,127.1365959,37.47848929
21000,부산광역시,129.0606704,35.2115306
1125053,서울특별시 강동구 명일1동,127.1490594,37.55463691
1124078,서울특별시 송파구 잠실7동,127.0704636,37.51766216
1124077,서울특별시 송파구 잠실6동,127.0950694,37.52499516
1125051,서울특별시 강동구 강일동,127.1696708,37.55083625
1124075,서울특별시 송파구 잠실4동,127.0950694,37.52499516
1125058,서울특별시 강동구 암사2동,127.1452475,37.56187946
1124069,서울특별시 송파구 문정2동,127.1365959,37.47848929
1125063,서울특별시 강동구 천호3동,127.1404136,37.55051214
2301063,인천광역시 중구 용유동,126.4123678,37.45191286
1124080,서울특별시 송파구 잠실3동,127.070081,37.51794461
1125067,서울특별시 강동구 성내3동,127.1273601,37.5374359
1125056,서울특별시 강동구 고덕2동,127.1637023,37.57364778
1125054,서울특별시 강동구 명일2동,127.1517085,37.55469947
1125065,서울특별시 강동구 성내1동,127.1273601,37.5374359
22000,대구광역시,128.596571,35.81099271
1125055,서울특별시 강동구 고덕1동,127.1641512,37.57419003
1125073,서울특별시 강동구 천호2동,127.1399086,37.55047204
1125052,서울특별시 강동구 상일동,127.1696708,37.55083625
1125059,서울특별시 강동구 암사3동,127.1416234,37.5630386
2301054,인천광역시 중구 신흥동,126.6313032,37.46693377
2302059,인천광역시 동구 송림2동,126.6524532,37.48116392
1125070,서울특별시 강동구 둔촌1동,127.1493622,37.53155564
2301052,인천광역시 중구 연안동,126.6188289,37.45067686
1125072,서울특별시 강동구 암사1동,127.145374,37.56197831
1125071,서울특별시 강동구 둔촌2동,127.1492202,37.53118765
2301064,인천광역시 중구 운서동,126.4505057,37.46411056
1125074,서울특별시 강동구 길동,127.1464359,37.53968838
2301060,인천광역시 중구 북성동,126.6209236,37.47612938
1125066,서울특별시 강동구 성내2동,127.1273601,37.5374359
2302051,인천광역시 동구 만석동,126.6230803,37.4858628
2301056,인천광역시 중구 도원동,126.6402328,37.46715424
2303060,인천광역시 남구 학익1동,126.6667545,37.44738875
2301065,인천광역시 중구 영종동,126.5331073,37.48589221
2301058,인천광역시 중구 동인천동,126.6281865,37.47345524
2301057,인천광역시 중구 율목동,126.6371311,37.46963032
2301053,인천광역시 중구 신포동,126.6215526,37.47371805
2302060,인천광역시 동구 송림3·5동,126.6524848,37.47925097
2302064,인천광역시 동구 금창동,126.6403368,37.47244679
2302057,인천광역시 동구 송현3동,126.6438772,37.48100274
2301061,인천광역시 중구 송월동,126.6237864,37.47980104
2302052,인천광역시 동구 화수1·화평동,126.6345515,37.48361621
2303072,인천광역시 남구 주안8동,126.6785387,37.46950493
2302061,인천광역시 동구 송림4동,126.6522429,37.47832127
2302055,인천광역시 동구 송현1·2동,126.6448953,37.48323255
2302053,인천광역시 동구 화수2동,126.6301745,37.48568603
2303061,인천광역시 남구 학익2동,126.667454,37.44718791
2301066,인천광역시 중구 영종1동,126.5331073,37.48589221
2303066,인천광역시 남구 주안2동,126.681304,37.47335067
2303057,인천광역시 남구 용현3동,126.6664471,37.45232715
2302058,인천광역시 동구 송림1동,126.6522954,37.48123652
2303052,인천광역시 남구 숭의2동,126.6590901,37.46497603
2304055,인천광역시 연수구 연수3동,126.6865944,37.42610072
2303062,인천광역시 남구 도화1동,126.6740798,37.47311904
2303054,인천광역시 남구 숭의4동,126.6590703,37.46279161
2303073,인천광역시 남구 관교동,126.6967622,37.44306117
2303056,인천광역시 남구 용현2동,126.6672013,37.45207605
2302063,인천광역시 동구 송림6동,126.6507794,37.47885488
2303076,인천광역시 남구 용현1·4동,126.6632506,37.45632854
2303070,인천광역시 남구 주안6동,126.6774974,37.47028176
2303059,인천광역시 남구 용현5동,126.6662297,37.45188686
2303067,인천광역시 남구 주안3동,126.681304,37.47335067
2305052,인천광역시 남동구 구월2동,126.7178189,37.46060157
2303074,인천광역시 남구 문학동,126.6858121,37.43674734
2303068,인천광역시 남구 주안4동,126.6745087,37.47106085
2304056,인천광역시 연수구 청학동,126.6644893,37.42466286
2303069,인천광역시 남구 주안5동,126.6745087,37.47106085
2303065,인천광역시 남구 주안1동,126.681304,37.47335067
2304059,인천광역시 연수구 동춘3동,126.6711921,37.41709089
2304053,인천광역시 연수구 연수1동,126.6865944,37.42610072
2303071,인천광역시 남구 주안7동,126.6774974,37.47028176
2305062,인천광역시 남동구 만수4동,126.7419476,37.46168847
2303077,인천광역시 남구 도화2·3동,126.6740798,37.47311904
2304057,인천광역시 연수구 동춘1동,126.6711921,37.41709089
2304051,인천광역시 연수구 옥련1동,126.6544551,37.431846
2304052,인천광역시 연수구 선학동,126.6963047,37.42827411
2305053,인천광역시 남동구 구월3동,126.7178189,37.46060157
2303075,인천광역시 남구 숭의1·3동,126.6586537,37.46603489
2305056,인천광역시 남동구 간석2동,126.7114986,37.44769267
2304054,인천광역시 연수구 연수2동,126.6865944,37.42610072
2304065,인천광역시 연수구 송도3동,126.6509431,37.39567551
2304060,인천광역시 연수구 옥련2동,126.6544551,37.431846
2306053,인천광역시 부평구 부평3동,126.6993608,37.47741784
2305054,인천광역시 남동구 구월4동,126.7174835,37.45905193
2304063,인천광역시 연수구 송도2동,126.6576613,37.39453216
2305063,인천광역시 남동구 만수5동,126.7383575,37.46369661
2304064,인천광역시 연수구 송도1동,126.6597511,37.39528476
2305051,인천광역시 남동구 구월1동,126.7178189,37.46060157
2305067,인천광역시 남동구 남촌도림동,126.7262274,37.41906765
2304058,인천광역시 연수구 동춘2동,126.6711921,37.41709089
2305060,인천광역시 남동구 만수2동,126.7391352,37.46515194
2305057,인천광역시 남동구 간석3동,126.7132286,37.47564483
2306063,인천광역시 부평구 갈산1동,126.7307004,37.52268833
2305064,인천광역시 남동구 만수6동,126.7389585,37.46279327
2305058,인천광역시 남동구 간석4동,126.7111566,37.47208047
2306054,인천광역시 부평구 부평4동,126.7324049,37.50530354
2305061,인천광역시 남동구 만수3동,126.7402295,37.46250916
2305059,인천광역시 남동구 만수1동,126.7406213,37.46663046
2306057,인천광역시 부평구 산곡1동,126.703659,37.51340909
2305055,인천광역시 남동구 간석1동,126.7107089,37.47657364
2306051,인천광역시 부평구 부평1동,126.7324049,37.50530354
2305072,인천광역시 남동구 논현1동,126.7395508,37.41826107
2306055,인천광역시 부평구 부평5동,126.7324049,37.50530354
2307051,인천광역시 계양구 효성1동,126.7174486,37.5328147
2306064,인천광역시 부평구 갈산2동,126.7301887,37.52245638
2305073,인천광역시 남동구 논현2동,126.739115,37.41774723
2306052,인천광역시 부평구 부평2동,126.7324049,37.50530354
2305074,인천광역시 남동구 논현고잔동,126.6943088,37.39602516
2305065,인천광역시 남동구 장수서창동,126.7602246,37.45876779
2306067,인천광역시 부평구 부개2동,126.7377798,37.50468828
2306058,인천광역시 부평구 산곡2동,126.7124558,37.51362817
2306061,인천광역시 부평구 청천1동,126.7049396,37.52007835
2306065,인천광역시 부평구 삼산1동,126.7260296,37.51548523
2307063,인천광역시 계양구 계양1동,126.736216,37.57573182
2307052,인천광역시 계양구 효성2동,126.7172393,37.53263597
2306059,인천광역시 부평구 산곡3동,126.7209137,37.4886631
2306060,인천광역시 부평구 산곡4동,126.7034617,37.51274212
2306062,인천광역시 부평구 청천2동,126.7066887,37.518992
2307055,인천광역시 계양구 계산3동,126.7332753,37.54280526
2306056,인천광역시 부평구 부평6동,126.7324049,37.50530354
2306068,인천광역시 부평구 부개3동,126.7377798,37.50468828
2308062,인천광역시 서구 가좌1동,126.6905815,37.49515785
2307053,인천광역시 계양구 계산1동,126.7335692,37.54273158
2306071,인천광역시 부평구 십정2동,126.6955364,37.48468857
2307064,인천광역시 계양구 계양3동,126.7851104,37.58056292
2306069,인천광역시 부평구 일신동,126.7563027,37.47461145
2306070,인천광역시 부평구 십정1동,126.6955783,37.48500894
2308054,인천광역시 서구 가정1동,126.6780762,37.534754
2306072,인천광역시 부평구 삼산2동,126.750956,37.52009291
2306066,인천광역시 부평구 부개1동,126.7209137,37.4886631
2307056,인천광역시 계양구 작전1동,126.7338283,37.53414278
2308077,인천광역시 서구 검단5동,126.6546738,37.62027582
2308051,인천광역시 서구 검암경서동,126.6761487,37.56341813
2307061,인천광역시 계양구 계양2동,126.7319575,37.55470837
2307057,인천광역시 계양구 작전2동,126.7338283,37.53414278
2308063,인천광역시 서구 가좌2동,126.6907294,37.4952775
2307058,인천광역시 계양구 작전서운동,126.7305901,37.53019116
2308069,인천광역시 서구 검단2동,126.653484,37.62032794
2307062,인천광역시 계양구 계산4동,126.7332753,37.54280526
2307054,인천광역시 계양구 계산2동,126.7335692,37.54273158
2308055,인천광역시 서구 가정2동,126.6768566,37.53315392
2331037,인천광역시 강화군 하점면,126.4003548,37.7636564
2308064,인천광역시 서구 가좌3동,126.689718,37.49500944
2308056,인천광역시 서구 가정3동,126.6758499,37.53287733
2308059,인천광역시 서구 석남2동,126.6788734,37.51295485
2308078,인천광역시 서구 청라2동,126.5994237,37.55042649
2308058,인천광역시 서구 석남1동,126.6788734,37.51295485
2308060,인천광역시 서구 석남3동,126.6788734,37.51295485
2331031,인천광역시 강화군 선원면,126.4886372,37.7133968
2308053,인천광역시 서구 연희동,126.6792532,37.54136049
2308070,인천광역시 서구 검단3동,126.6533098,37.62130952
2332035,인천광역시 옹진군 덕적면,126.1151577,37.24197525
2308079,인천광역시 서구 청라3동,126.6177631,37.55388977
2308074,인천광역시 서구 청라1동,126.6017022,37.54541491
2308071,인천광역시 서구 검단4동,126.6538814,37.62094988
2308073,인천광역시 서구 신현원창동,126.6674524,37.51959409
2308076,인천광역시 서구 검단1동,126.6506087,37.6216857
2331038,인천광역시 강화군 양사면,126.4081884,37.80275305
2331041,인천광역시 강화군 삼산면,126.3140433,37.69776173
2308065,인천광역시 서구 가좌4동,126.6896325,37.49514739
2331032,인천광역시 강화군 불은면,126.4864022,37.68126805
2331035,인천광역시 강화군 양도면,126.4398011,37.67355539
2331039,인천광역시 강화군 송해면,126.4634753,37.77826289
2331033,인천광역시 강화군 길상면,126.4984294,37.63468727
2331034,인천광역시 강화군 화도면,126.4218777,37.61961286
2331036,인천광역시 강화군 내가면,126.3963526,37.7197335
25000,대전광역시,127.3874751,36.34167577
3101157,경기도 수원시 장안구 정자2동,127.0097722,37.29412442
2332036,인천광역시 옹진군 자월면,126.3059373,37.25798758
2332033,인천광역시 옹진군 백령면,124.673119,37.94943306
2331011,인천광역시 강화군 강화읍,126.4984254,37.75892544
2331042,인천광역시 강화군 서도면,126.1817303,37.67159996
2332037,인천광역시 옹진군 영흥면,126.4608543,37.25569443
2332031,인천광역시 옹진군 북도면,126.4514304,37.52794273
2332032,인천광역시 옹진군 연평면,125.6975843,37.66656234
2332034,인천광역시 옹진군 대청면,124.6976876,37.82446753
3101161,경기도 수원시 장안구 연무동,127.0182656,37.33498893
26000,울산광역시,129.2127123,35.52744322
2331040,인천광역시 강화군 교동면,126.2721081,37.78477034
29000,세종특별자치시,127.2697257,36.57029333
3101155,경기도 수원시 장안구 율천동,126.9676983,37.30252966
3101255,경기도 수원시 권선구 평동,126.9522661,37.26230517
3101158,경기도 수원시 장안구 영화동,127.0147137,37.29210104
24000,광주광역시,126.8299969,35.15502108
3101159,경기도 수원시 장안구 송죽동,127.0028748,37.30715865
3101154,경기도 수원시 장안구 파장동,126.9782156,37.31877691
3101261,경기도 수원시 권선구 곡선동,127.0297526,37.24927067
3101162,경기도 수원시 장안구 정자3동,127.0097722,37.29412442
3101156,경기도 수원시 장안구 정자1동,127.0087446,37.29525226
3101163,경기도 수원시 장안구 조원2동,127.0241838,37.30601294
3101253,경기도 수원시 권선구 세류2동,127.0120617,37.26617881
3101354,경기도 수원시 팔달구 우만1동,127.0419005,37.2881608
3101256,경기도 수원시 권선구 서둔동,126.9751458,37.26586631
3101257,경기도 수원시 권선구 구운동,126.9702002,37.28145077
3101368,경기도 수원시 팔달구 매산동,127.009497,37.27114664
3101160,경기도 수원시 장안구 조원1동,127.0241417,37.30559678
3101262,경기도 수원시 권선구 입북동,126.9410529,37.29016663
3101252,경기도 수원시 권선구 세류1동,127.0120617,37.26617881
3101254,경기도 수원시 권선구 세류3동,127.0120617,37.26617881
3101264,경기도 수원시 권선구 권선2동,127.0394297,37.25319841
3101266,경기도 수원시 권선구 호매실동,126.9522661,37.26230517
3101356,경기도 수원시 팔달구 인계동,127.026382,37.26740928
3101452,경기도 수원시 영통구 매탄2동,127.0574852,37.27137579
3101355,경기도 수원시 팔달구 우만2동,127.0410769,37.28731081
3101460,경기도 수원시 영통구 원천동,127.0606276,37.27216352
3101369,경기도 수원시 팔달구 고등동,127.002344,37.27456249
3101260,경기도 수원시 권선구 권선1동,127.0394297,37.25319841
3101265,경기도 수원시 권선구 금곡동,126.9437,37.27200673
3101353,경기도 수원시 팔달구 지동,127.0256059,37.28231771
3101370,경기도 수원시 팔달구 화서1동,127.0019235,37.28829161
3101372,경기도 수원시 팔달구 행궁동,127.0167088,37.28027772
3101454,경기도 수원시 영통구 매탄4동,127.0567536,37.27165314
3102151,경기도 성남시 수정구 신흥1동,127.1430397,37.45501762
3101453,경기도 수원시 영통구 매탄3동,127.0570177,37.2715924
3101462,경기도 수원시 영통구 광교1동,127.0466877,37.30098599
3102155,경기도 성남시 수정구 태평2동,127.1363616,37.44718321
3101367,경기도 수원시 팔달구 매교동,127.0135283,37.27167551
3101451,경기도 수원시 영통구 매탄1동,127.0572328,37.27118253
3101371,경기도 수원시 팔달구 화서2동,127.0019235,37.28829161
3101463,경기도 수원시 영통구 광교2동,127.0728022,37.28610078
3101465,경기도 수원시 영통구 영통2동,127.0534652,37.24852893
3102161,경기도 성남시 수정구 산성동,127.1529817,37.45653993
3102153,경기도 성남시 수정구 신흥3동,127.1436574,37.45476814
3102166,경기도 성남시 수정구 시흥동,127.1134191,37.41564972
3102152,경기도 성남시 수정구 신흥2동,127.1433638,37.45493888
3102156,경기도 성남시 수정구 태평3동,127.1363616,37.44718321
3101459,경기도 수원시 영통구 태장동,127.0562115,37.2761983
3101466,경기도 수원시 영통구 영통3동,127.0729425,37.26579405
3101464,경기도 수원시 영통구 영통1동,127.0743625,37.26610483
3102157,경기도 성남시 수정구 태평4동,127.1363616,37.44718321
3102255,경기도 성남시 중원구 은행1동,127.1804353,37.47228328
3102159,경기도 성남시 수정구 수진2동,127.1356683,37.44183825
3102164,경기도 성남시 수정구 신촌동,127.0999327,37.44697985
3102259,경기도 성남시 중원구 상대원3동,127.1884761,37.44782373
3102162,경기도 성남시 수정구 양지동,127.1647643,37.46303064
3102167,경기도 성남시 수정구 복정동,127.1320075,37.45927507
3102160,경기도 성남시 수정구 단대동,127.1582732,37.45533196
3102158,경기도 성남시 수정구 수진1동,127.1360385,37.44177689
3102168,경기도 성남시 수정구 위례동,127.149251,37.46565138
3102154,경기도 성남시 수정구 태평1동,127.1363616,37.44718321
3102353,경기도 성남시 분당구 수내1동,127.1191173,37.38272266
3102253,경기도 성남시 중원구 금광1동,127.1572885,37.44490464
3102256,경기도 성남시 중원구 은행2동,127.1796721,37.47245761
3102257,경기도 성남시 중원구 상대원1동,127.1887818,37.44755931
3102260,경기도 성남시 중원구 하대원동,127.1499514,37.4289847
3102358,경기도 성남시 분당구 서현1동,127.1616958,37.38560022
3102254,경기도 성남시 중원구 금광2동,127.1573825,37.44481887
3102251,경기도 성남시 중원구 성남동,127.1307576,37.43138052
3102261,경기도 성남시 중원구 도촌동,127.1738155,37.42407288
3102165,경기도 성남시 수정구 고등동,127.0644279,37.42771302
3102351,경기도 성남시 분당구 분당동,127.1429982,37.36949099
3102364,경기도 성남시 분당구 야탑2동,127.1657462,37.40219551
3102354,경기도 성남시 분당구 수내2동,127.1200306,37.38187945
3102355,경기도 성남시 분당구 정자2동,127.1126001,37.38316492
3102359,경기도 성남시 분당구 서현2동,127.1466723,37.38727943
3102372,경기도 성남시 분당구 구미1동,127.0840577,37.35368568
3102352,경기도 성남시 분당구 수내3동,127.1195854,37.38225882
3102262,경기도 성남시 중원구 중앙동,127.1505276,37.43959765
3102360,경기도 성남시 분당구 이매1동,127.1356128,37.40110211
3103051,경기도 의정부시 의정부1동,127.0315939,37.71187857
3102362,경기도 성남시 분당구 야탑1동,127.1689252,37.40301735
3102258,경기도 성남시 중원구 상대원2동,127.1892352,37.44747541
3102367,경기도 성남시 분당구 구미동,127.1201128,37.34355184
3102368,경기도 성남시 분당구 운중동,127.0401829,37.37772075
3103056,경기도 의정부시 장암동,127.0659036,37.70609293
3102374,경기도 성남시 분당구 삼평동,127.108895,37.40201103
3103064,경기도 의정부시 녹양동,127.0323967,37.76035624
3102361,경기도 성남시 분당구 이매2동,127.1088691,37.38513292
3102375,경기도 성남시 분당구 판교동,127.1088691,37.38513292
3102363,경기도 성남시 분당구 야탑3동,127.1651334,37.4010702
3102356,경기도 성남시 분당구 정자3동,127.1047132,37.38117667
3102377,경기도 성남시 분당구 정자1동,127.1084536,37.38161194
3103052,경기도 의정부시 의정부2동,127.0167153,37.74087614
3103053,경기도 의정부시 의정부3동,127.0530082,37.74631678
3104151,경기도 안양시 만안구 안양1동,126.9326272,37.41789289
3103057,경기도 의정부시 신곡1동,127.0808974,37.75309049
3103058,경기도 의정부시 신곡2동,127.0801454,37.75287917
3104157,경기도 안양시 만안구 안양7동,126.9197873,37.41684792
3102376,경기도 성남시 분당구 백현동,127.1088691,37.38513292
3102378,경기도 성남시 분당구 정자동,127.1130301,37.36739999
3103060,경기도 의정부시 자금동,127.0941879,37.76613418
3102371,경기도 성남시 분당구 금곡동,127.091827,37.37017734
3103066,경기도 의정부시 송산2동,127.0995428,37.74506965
3103065,경기도 의정부시 호원2동,127.046754,37.72968083
3104161,경기도 안양시 만안구 석수2동,126.9138386,37.43366633
3104152,경기도 안양시 만안구 안양2동,126.9326272,37.41789289
3103059,경기도 의정부시 송산1동,127.1093144,37.71848599
3104153,경기도 안양시 만안구 안양3동,126.9326272,37.41789289
3104253,경기도 안양시 동안구 비산3동,126.955741,37.41410327
3103061,경기도 의정부시 가능1동,127.0521049,37.74782332
3103055,경기도 의정부시 호원1동,127.0473281,37.72950421
3104155,경기도 안양시 만안구 안양5동,126.9189124,37.41719765
3104159,경기도 안양시 만안구 안양9동,126.9187551,37.4164528
3104158,경기도 안양시 만안구 안양8동,126.9197873,37.41684792
3104257,경기도 안양시 동안구 관양2동,126.9721255,37.41420952
3104162,경기도 안양시 만안구 석수3동,126.9138021,37.43341584
3104154,경기도 안양시 만안구 안양4동,126.9189124,37.41719765
3104163,경기도 안양시 만안구 박달1동,126.9070132,37.40730523
3103067,경기도 의정부시 흥선동,127.0167153,37.74087614
3104263,경기도 안양시 동안구 호계2동,126.9509651,37.3866866
3104251,경기도 안양시 동안구 비산1동,126.9578188,37.41610268
3104156,경기도 안양시 만안구 안양6동,126.9197873,37.41684792
3104255,경기도 안양시 동안구 달안동,126.9487036,37.41485106
3104254,경기도 안양시 동안구 부흥동,126.9487036,37.41485106
3104267,경기도 안양시 동안구 갈산동,126.9569466,37.3770741
3104258,경기도 안양시 동안구 부림동,126.9644246,37.40977813
3104259,경기도 안양시 동안구 평촌동,126.9656016,37.38653311
3104164,경기도 안양시 만안구 박달2동,126.9070132,37.40730523
3104160,경기도 안양시 만안구 석수1동,126.9199081,37.39069863
3105056,경기도 부천시 원미1동,126.7934719,37.50026258
3104261,경기도 안양시 동안구 귀인동,126.9656016,37.38653311
3104252,경기도 안양시 동안구 비산2동,126.9568449,37.41424959
3104265,경기도 안양시 동안구 범계동,126.9569466,37.3770741
3105060,경기도 부천시 도당동,126.7826948,37.51403698
3104264,경기도 안양시 동안구 호계3동,126.9509651,37.3866866
3105051,경기도 부천시 심곡2동,126.795224,37.48630642
3104260,경기도 안양시 동안구 평안동,126.9656016,37.38653311
3105052,경기도 부천시 심곡1동,126.795224,37.48630642
3104256,경기도 안양시 동안구 관양1동,126.9721255,37.41420952
3105066,경기도 부천시 중1동,126.7823518,37.5062503
3105054,경기도 부천시 원미2동,126.792747,37.49822453
3104262,경기도 안양시 동안구 호계1동,126.9509651,37.3866866
3105058,경기도 부천시 역곡2동,126.8200896,37.49056087
3105070,경기도 부천시 상3동,126.7823518,37.5062503
3105061,경기도 부천시 중동,126.7503651,37.50235859
3105057,경기도 부천시 역곡1동,126.8200896,37.49056087
3105062,경기도 부천시 상동,126.7503651,37.50235859
3105053,경기도 부천시 심곡3동,126.795224,37.48630642
3104266,경기도 안양시 동안구 신촌동,126.9569466,37.3770741
3105064,경기도 부천시 중4동,126.7823518,37.5062503
3105055,경기도 부천시 소사동,126.795224,37.48630642
3105076,경기도 부천시 소사본3동,126.7975681,37.48297698
3105080,경기도 부천시 성곡동,126.798597,37.5138759
3105068,경기도 부천시 중3동,126.7823518,37.5062503
3105071,경기도 부천시 심곡본동,126.7797539,37.47838371
3105072,경기도 부천시 심곡본1동,126.7797539,37.47838371
3105059,경기도 부천시 춘의동,126.8020389,37.50188095
3105067,경기도 부천시 중2동,126.7823518,37.5062503
3105065,경기도 부천시 약대동,126.7698804,37.51314004
3105063,경기도 부천시 상1동,126.7823518,37.5062503
3105086,경기도 부천시 신흥동,126.7823518,37.5062503
3105074,경기도 부천시 송내2동,126.7589172,37.48741667
3105078,경기도 부천시 범박동,126.8116314,37.46980432
3106054,경기도 광명시 광명4동,126.8665286,37.49199178
3105081,경기도 부천시 고강본동,126.8165495,37.53210672
3105077,경기도 부천시 괴안동,126.8114776,37.48213858
3105082,경기도 부천시 고강1동,126.8210077,37.53861581
3105075,경기도 부천시 소사본동,126.7946836,37.47329638
3105073,경기도 부천시 송내1동,126.7650177,37.48040567
3105069,경기도 부천시 상2동,126.7823518,37.5062503
3106060,경기도 광명시 철산3동,126.8698491,37.4910846
3106052,경기도 광명시 광명2동,126.8662349,37.49227768
3106064,경기도 광명시 하안3동,126.8774148,37.46765524
3106055,경기도 광명시 광명5동,126.8652553,37.49113803
3106051,경기도 광명시 광명1동,126.8662349,37.49227768
3105084,경기도 부천시 원종1동,126.8068491,37.53596906
3106056,경기도 광명시 광명6동,126.8648585,37.48968078
3105083,경기도 부천시 오정동,126.7835721,37.52182408
3105085,경기도 부천시 원종2동,126.8067555,37.53571271
3107012,경기도 평택시 안중읍,126.9279687,36.98861971
3105079,경기도 부천시 역곡3동,126.8200896,37.49056087
3106065,경기도 광명시 하안4동,126.8774148,37.46765524
3107032,경기도 평택시 서탄면,127.0194774,37.10265247
3106062,경기도 광명시 하안1동,126.8774148,37.46765524
3106058,경기도 광명시 철산1동,126.8698491,37.4910846
3106066,경기도 광명시 소하1동,126.8946263,37.45048996
3107053,경기도 평택시 송탄동,127.084928,37.05836629
3106057,경기도 광명시 광명7동,126.8629932,37.49043025
3106061,경기도 광명시 철산4동,126.8698491,37.4910846
3106059,경기도 광명시 철산2동,126.8698491,37.4910846
3106053,경기도 광명시 광명3동,126.8650725,37.49140105
3106068,경기도 광명시 학온동,126.8575627,37.41673579
3107033,경기도 평택시 고덕면,127.0323421,37.0346004
3107014,경기도 평택시 청북읍,126.9322278,37.04299256
3107034,경기도 평택시 오성면,126.9981878,37.00200745
3107058,경기도 평택시 신장2동,127.048987,37.09436394
3107064,경기도 평택시 세교동,127.0966059,37.01535473
3106067,경기도 광명시 소하2동,126.8946263,37.45048996
3107011,경기도 평택시 팽성읍,127.0409682,36.96176941
3107013,경기도 평택시 포승읍,126.8622845,36.9702832
3106063,경기도 광명시 하안2동,126.8774148,37.46765524
3107051,경기도 평택시 중앙동,127.0689062,37.05941726
3107059,경기도 평택시 신평동,127.1035092,36.98500682
3107056,경기도 평택시 송북동,127.0509319,37.08393052
3107060,경기도 평택시 원평동,127.0878579,36.98148516
3108055,경기도 동두천시 보산동,127.0960344,37.92779166
3107037,경기도 평택시 현덕면,126.9401704,36.94495005
3107052,경기도 평택시 서정동,127.0549838,37.06472535
3107055,경기도 평택시 지산동,127.0509319,37.08393052
3109154,경기도 안산시 상록구 본오1동,126.8883971,37.29066265
3107031,경기도 평택시 진위면,127.0807195,37.11011987
3108056,경기도 동두천시 불현동,127.0950492,37.90266657
3107062,경기도 평택시 비전1동,127.0966059,37.01535473
3108052,경기도 동두천시 생연2동,127.0751301,37.90854137
3108058,경기도 동두천시 소요동,127.0682147,37.96448716
3109158,경기도 안산시 상록구 월피동,126.8659686,37.33241798
3107061,경기도 평택시 통복동,127.0966059,37.01535473
3107063,경기도 평택시 비전2동,127.1068359,37.01515057
3108051,경기도 동두천시 생연1동,127.0750314,37.90882753
3107057,경기도 평택시 신장1동,127.0585044,37.0909136
3109177,경기도 안산시 상록구 사이동,126.8393908,37.29174675
3108061,경기도 동두천시 송내동,127.0646733,37.88924709
3109162,경기도 안산시 상록구 성포동,126.8487889,37.32126293
3109156,경기도 안산시 상록구 본오3동,126.876046,37.29026694
3108060,경기도 동두천시 상패동,127.0300596,37.90801463
3109171,경기도 안산시 상록구 반월동,126.9213029,37.29305457
3109151,경기도 안산시 상록구 일동,126.8536192,37.3103369
3109268,경기도 안산시 단원구 선부1동,126.7901648,37.34116205
3108053,경기도 동두천시 중앙동,127.0625908,37.90396565
3109155,경기도 안산시 상록구 본오2동,126.8763309,37.29052465
3109275,경기도 안산시 단원구 중앙동,126.8312184,37.32024388
3109174,경기도 안산시 상록구 이동,126.8711436,37.31218509
3109269,경기도 안산시 단원구 선부2동,126.7901648,37.34116205
3109259,경기도 안산시 단원구 와동,126.8275604,37.33939429
3109173,경기도 안산시 상록구 안산동,126.8608131,37.35355309
3109270,경기도 안산시 단원구 선부3동,126.7901648,37.34116205
3109176,경기도 안산시 상록구 사동,126.8393908,37.29174675
3109157,경기도 안산시 상록구 부곡동,126.8659686,37.33241798
3110151,경기도 고양시 덕양구 주교동,126.8517405,37.64783476
3109178,경기도 안산시 상록구 해양동,126.8393908,37.29174675
3109273,경기도 안산시 단원구 호수동,126.8312184,37.32024388
3109277,경기도 안산시 단원구 신길동,126.7955829,37.32799668
3109272,경기도 안산시 단원구 대부동,126.5660072,37.21618326
3110157,경기도 고양시 덕양구 신도동,126.8993676,37.66019018
3110152,경기도 고양시 덕양구 원신동,126.8601348,37.67100485
3109266,경기도 안산시 단원구 초지동,126.7955829,37.32799668
3110153,경기도 고양시 덕양구 흥도동,126.8517405,37.64783476
3109274,경기도 안산시 단원구 고잔동,126.8312184,37.32024388
3109276,경기도 안산시 단원구 원곡동,126.7955829,37.32799668
3110161,경기도 고양시 덕양구 능곡동,126.7861273,37.62040787
3110155,경기도 고양시 덕양구 성사2동,126.8604106,37.6449746
3110159,경기도 고양시 덕양구 고양동,126.8844557,37.69765039
3110167,경기도 고양시 덕양구 화전동,126.8696783,37.58596678
3110154,경기도 고양시 덕양구 성사1동,126.8599378,37.64536344
3109278,경기도 안산시 단원구 백운동,126.7955829,37.32799668
3110162,경기도 고양시 덕양구 화정1동,126.8480164,37.63233764
3110156,경기도 고양시 덕양구 효자동,126.9457806,37.66896151
3110163,경기도 고양시 덕양구 화정2동,126.8478424,37.63203248
3110158,경기도 고양시 덕양구 창릉동,126.9457806,37.66896151
3110352,경기도 고양시 일산동구 중산동,126.7855743,37.6861591
3110165,경기도 고양시 덕양구 행신1동,126.8535143,37.61943814
3110169,경기도 고양시 덕양구 행신3동,126.8541304,37.61816796
3110160,경기도 고양시 덕양구 관산동,126.8844557,37.69765039
3110353,경기도 고양시 일산동구 정발산동,126.7566561,37.64783896
3110358,경기도 고양시 일산동구 장항1동,126.7630763,37.65250212
3110164,경기도 고양시 덕양구 행주동,126.8294752,37.60432596
3110166,경기도 고양시 덕양구 행신2동,126.8541304,37.61816796
3110168,경기도 고양시 덕양구 대덕동,126.8482638,37.59046291
3110354,경기도 고양시 일산동구 풍산동,126.7955268,37.6693858
3110451,경기도 고양시 일산서구 일산1동,126.7700319,37.69726423
3110356,경기도 고양시 일산동구 마두1동,126.7912698,37.65896785
3110360,경기도 고양시 일산동구 고봉동,126.8424655,37.69992795
3110351,경기도 고양시 일산동구 식사동,126.8151731,37.67689987
3110457,경기도 고양시 일산서구 대화동,126.7397004,37.66880838
3110452,경기도 고양시 일산서구 일산2동,126.7700319,37.69726423
3111052,경기도 과천시 갈현동,126.9923694,37.42195947
3110357,경기도 고양시 일산동구 마두2동,126.7912698,37.65896785
3110355,경기도 고양시 일산동구 백석1동,126.8026814,37.64418064
3110453,경기도 고양시 일산서구 일산3동,126.7776082,37.6950861
3112052,경기도 구리시 동구동,127.1392079,37.63481813
3110359,경기도 고양시 일산동구 장항2동,126.7630763,37.65250212
3110455,경기도 고양시 일산서구 주엽1동,126.7586208,37.67803155
3111053,경기도 과천시 별양동,126.9958488,37.42813213
3110459,경기도 고양시 일산서구 송산동,126.7445562,37.69422736
3112056,경기도 구리시 수택1동,127.1252279,37.59206767
3110361,경기도 고양시 일산동구 백석2동,126.8026814,37.64418064
3111054,경기도 과천시 부림동,126.9958488,37.42813213
3110454,경기도 고양시 일산서구 탄현동,126.7700319,37.69726423
3113014,경기도 남양주시 진건읍,127.1842996,37.65806825
3110456,경기도 고양시 일산서구 주엽2동,126.7595748,37.67740498
3112057,경기도 구리시 수택2동,127.1252279,37.59206767
3111056,경기도 과천시 문원동,127.0259523,37.42680086
3112054,경기도 구리시 교문1동,127.1369759,37.59728452
3113034,경기도 남양주시 수동면,127.301662,37.7225746
3110458,경기도 고양시 일산서구 송포동,126.7397004,37.66880838
3111051,경기도 과천시 중앙동,126.9879897,37.44292341
3112058,경기도 구리시 수택3동,127.1654611,37.59385803
3111055,경기도 과천시 과천동,127.0250044,37.45197129
3112051,경기도 구리시 갈매동,127.1198226,37.63139269
3113057,경기도 남양주시 별내동,127.1193488,37.66907187
3113035,경기도 남양주시 조안면,127.2950881,37.55946366
3113012,경기도 남양주시 진접읍,127.1939131,37.71695401
3112053,경기도 구리시 인창동,127.1252279,37.59206767
3113031,경기도 남양주시 별내면,127.1251807,37.71207701
3114052,경기도 오산시 대원동,127.0728631,37.1310583
3113051,경기도 남양주시 호평동,127.2430606,37.66142102
3112055,경기도 구리시 교문2동,127.1364637,37.59665333
3113011,경기도 남양주시 와부읍,127.2359763,37.58678918
3113013,경기도 남양주시 화도읍,127.3198469,37.65317862
3115052,경기도 시흥시 신천동,126.7792119,37.43935613
3114053,경기도 오산시 남촌동,127.0563235,37.1520393
3113053,경기도 남양주시 금곡동,127.2150044,37.63220862
3113015,경기도 남양주시 오남읍,127.2305531,37.69398878
3113059,경기도 남양주시 다산2동,127.1769221,37.59203119
3115056,경기도 시흥시 목감동,126.8651232,37.37402457
3113052,경기도 남양주시 평내동,127.2344376,37.64662045
3114054,경기도 오산시 신장동,127.0560048,37.16100596
3113054,경기도 남양주시 양정동,127.1855068,37.6204992
3113032,경기도 남양주시 퇴계원면,127.1426426,37.6550664
3115059,경기도 시흥시 과림동,126.8382791,37.41513951
3115065,경기도 시흥시 정왕1동,126.7571101,37.371656
3114056,경기도 오산시 초평동,127.0380588,37.1495963
3115054,경기도 시흥시 은행동,126.8152973,37.42953619
3113058,경기도 남양주시 다산1동,127.1785164,37.59977458
3115070,경기도 시흥시 연성동,126.7985229,37.37966507
3114055,경기도 오산시 세마동,127.007957,37.17436629
3115051,경기도 시흥시 대야동,126.812327,37.45122689
3115061,경기도 시흥시 정왕2동,126.7565537,37.37039445
3115071,경기도 시흥시 장곡동,126.7985229,37.37966507
3116056,경기도 군포시 금정동,126.9412185,37.36176668
3114051,경기도 오산시 중앙동,127.0877482,37.1534478
3115068,경기도 시흥시 군자동,126.7743037,37.35450847
3115063,경기도 시흥시 정왕4동,126.7555471,37.37123881
3116060,경기도 군포시 궁내동,126.9190239,37.35968072
3115053,경기도 시흥시 신현동,126.7764854,37.40583282
3115062,경기도 시흥시 정왕3동,126.7556642,37.37085668
3116051,경기도 군포시 군포1동,126.9549075,37.34899014
3115064,경기도 시흥시 정왕본동,126.7276284,37.35049095
3116061,경기도 군포시 광정동,126.9190239,37.35968072
3117054,경기도 의왕시 내손1동,126.9898192,37.39451247
3115055,경기도 시흥시 매화동,126.8182434,37.40673983
3116054,경기도 군포시 산본1동,126.9417093,37.37829347
3118052,경기도 하남시 신장1동,127.2249849,37.54764075
3116058,경기도 군포시 오금동,126.9190239,37.35968072
3115067,경기도 시흥시 능곡동,126.8173943,37.36137213
3116052,경기도 군포시 군포2동,126.9365195,37.32905381
3116062,경기도 군포시 대야동,126.919974,37.32865264
3118060,경기도 하남시 초이동,127.1735149,37.51862096
3116055,경기도 군포시 산본2동,126.9413336,37.37768563
3118053,경기도 하남시 신장2동,127.2320483,37.53514914
3115069,경기도 시흥시 월곶동,126.7574932,37.38302075
3117052,경기도 의왕시 부곡동,126.9563012,37.32241711
3118064,경기도 하남시 감북동,127.1735149,37.51862096
3117056,경기도 의왕시 청계동,126.9898192,37.39451247
3116057,경기도 군포시 재궁동,126.9412185,37.36176668
3117051,경기도 의왕시 고천동,126.9823947,37.36126276
3117053,경기도 의왕시 오전동,126.9823947,37.36126276
3118054,경기도 하남시 덕풍1동,127.2040096,37.56075053
3119134,경기도 용인시 처인구 원삼면,127.3104339,37.16127351
3116059,경기도 군포시 수리동,126.9190239,37.35968072
3118065,경기도 하남시 위례동,127.1679495,37.49804627
3118056,경기도 하남시 덕풍3동,127.2050492,37.55922229
3118062,경기도 하남시 미사1동,127.1884662,37.56920486
3117055,경기도 의왕시 내손2동,126.9898192,37.39451247
3118055,경기도 하남시 덕풍2동,127.2050492,37.55922229
3119152,경기도 용인시 처인구 역삼동,127.1648769,37.24046946
3118059,경기도 하남시 춘궁동,127.2063016,37.50979341
3119111,경기도 용인시 처인구 포곡읍,127.2108191,37.29317158
3118051,경기도 하남시 천현동,127.2320483,37.53514914
3119255,경기도 용인시 기흥구 서농동,127.0739884,37.23936441
3118061,경기도 하남시 풍산동,127.1903755,37.54978552
3119153,경기도 용인시 처인구 유림동,127.2236365,37.25022456
3119136,경기도 용인시 처인구 양지면,127.2872578,37.24420254
3119113,경기도 용인시 처인구 이동읍,127.2335077,37.15745881
3119112,경기도 용인시 처인구 모현읍,127.2420369,37.32642526
3119259,경기도 용인시 기흥구 보정동,127.1091532,37.30789996
3119132,경기도 용인시 처인구 남사면,127.1543602,37.13453934
3119154,경기도 용인시 처인구 동부동,127.2392147,37.21223274
3118063,경기도 하남시 미사2동,127.1796545,37.58126514
3119353,경기도 용인시 수지구 신봉동,127.0575624,37.33179139
3119135,경기도 용인시 처인구 백암면,127.3900525,37.14685758
3119260,경기도 용인시 기흥구 상하동,127.1397586,37.26410197
3119253,경기도 용인시 기흥구 상갈동,127.1130955,37.26541252
3119257,경기도 용인시 기흥구 마북동,127.1362625,37.30756499
3119252,경기도 용인시 기흥구 구갈동,127.1219843,37.27721189
3119357,경기도 용인시 수지구 상현1동,127.0873894,37.31332794
3119254,경기도 용인시 기흥구 기흥동,127.1143265,37.22557979
3119261,경기도 용인시 기흥구 신갈동,127.0993414,37.28104801
3120015,경기도 파주시 조리읍,126.8256704,37.75309918
3119151,경기도 용인시 처인구 중앙동,127.202766,37.23646467
3119256,경기도 용인시 기흥구 구성동,127.1270904,37.29232331
3119358,경기도 용인시 수지구 상현2동,127.0873894,37.31332794
3120031,경기도 파주시 월롱면,126.7983502,37.79816305
3119351,경기도 용인시 수지구 풍덕천1동,127.103064,37.33180851
3119262,경기도 용인시 기흥구 영덕동,127.0821384,37.27205815
3119355,경기도 용인시 수지구 죽전2동,127.1392432,37.33035316
3119352,경기도 용인시 수지구 풍덕천2동,127.1027275,37.33064008
3119359,경기도 용인시 수지구 성복동,127.0593295,37.31955834
3120052,경기도 파주시 금촌2동,126.7795248,37.75452645
3119258,경기도 용인시 기흥구 동백동,127.1611056,37.2871639
3120032,경기도 파주시 탄현면,126.7174142,37.80085328
3119354,경기도 용인시 수지구 죽전1동,127.1389768,37.33362681
3120056,경기도 파주시 운정1동,126.7482046,37.75022655
3120012,경기도 파주시 파주읍,126.8164527,37.82937761
3120011,경기도 파주시 문산읍,126.7778568,37.87316471
3120026,경기도 파주시 장단면,126.8030725,37.94228035
3120035,경기도 파주시 광탄면,126.8908254,37.77482829
3121032,경기도 이천시 백사면,127.492117,37.32700361
3120013,경기도 파주시 법원읍,126.8963081,37.87122425
3119356,경기도 용인시 수지구 동천동,127.0432967,37.35818959
3120057,경기도 파주시 운정2동,126.7378596,37.72643186
3120021,경기도 파주시 진동면,126.8030725,37.94228035
3121036,경기도 이천시 모가면,127.4563217,37.1761519
3120037,경기도 파주시 적성면,126.9126443,37.94938987
3120036,경기도 파주시 파평면,126.8530801,37.91510484
3121054,경기도 이천시 증포동,127.4601713,37.275462
3120058,경기도 파주시 운정3동,126.759447,37.71458597
3120054,경기도 파주시 금촌3동,126.7795248,37.75452645
3120038,경기도 파주시 군내면,126.7470654,37.93897883
3120027,경기도 파주시 진서면,126.7119545,37.95582734
3121037,경기도 이천시 설성면,127.5153211,37.14136862
3122033,경기도 안성시 서운면,127.2544481,36.93680832
3120053,경기도 파주시 금촌1동,126.7795248,37.75452645
3121012,경기도 이천시 부발읍,127.4968522,37.27006649
3121038,경기도 이천시 율면,127.5452124,37.07384268
3122040,경기도 안성시 죽산면,127.4243203,37.05433605
3121011,경기도 이천시 장호원읍,127.5980279,37.13813717
3121034,경기도 이천시 마장면,127.3716055,37.24745143
3121031,경기도 이천시 신둔면,127.4139179,37.318706
3122034,경기도 안성시 미양면,127.2213101,36.97000692
3120055,경기도 파주시 교하동,126.7265207,37.73600491
3121052,경기도 이천시 중리동,127.4535898,37.22501239
3122052,경기도 안성시 안성2동,127.257793,36.99700175
3121033,경기도 이천시 호법면,127.4124084,37.21799546
3122035,경기도 안성시 대덕면,127.2380883,37.02909524
3123035,경기도 김포시 월곶면,126.5619887,37.73667128
3121053,경기도 이천시 관고동,127.4192994,37.29400362
3122053,경기도 안성시 안성3동,127.2691404,37.01264704
3121051,경기도 이천시 창전동,127.447383,37.28302155
3122031,경기도 안성시 보개면,127.3098302,37.05833958
3121035,경기도 이천시 대월면,127.4997663,37.21133956
3123056,경기도 김포시 장기동,126.6938983,37.62403255
3122038,경기도 안성시 원곡면,127.146979,37.04738111
3122011,경기도 안성시 공도읍,127.1832118,37.00071006
3124013,경기도 화성시 우정읍,126.7850659,37.0764445
3123011,경기도 김포시 통진읍,126.5964898,37.69894655
3122039,경기도 안성시 일죽면,127.4819842,37.10091412
3123058,경기도 김포시 구래동,126.6255705,37.64501354
3122042,경기도 안성시 고삼면,127.2723373,37.09765487
3122032,경기도 안성시 금광면,127.3378994,36.98114044
3122036,경기도 안성시 양성면,127.2079884,37.08564002
3124033,경기도 화성시 비봉면,126.8756966,37.23076264
3124042,경기도 화성시 양감면,126.9618739,37.0920087
3123013,경기도 김포시 양촌읍,126.611713,37.64275384
3122041,경기도 안성시 삼죽면,127.3586947,37.06444054
3123060,경기도 김포시 운양동,126.688456,37.65471525
3123034,경기도 김포시 대곶면,126.5702295,37.64310529
3124035,경기도 화성시 마도면,126.7601686,37.19799621
3123053,경기도 김포시 사우동,126.7248237,37.62000173
3122051,경기도 안성시 안성1동,127.2734605,37.00664682
3123012,경기도 김포시 고촌읍,126.7668051,37.61006269
3123062,경기도 김포시 장기본동,126.6669997,37.6469361
3124062,경기도 화성시 동탄3동,127.0547801,37.20829671
3124054,경기도 화성시 병점2동,127.0456005,37.21763
3123036,경기도 김포시 하성면,126.644803,37.73192911
3124036,경기도 화성시 송산면,126.7197929,37.22693689
3124012,경기도 화성시 봉담읍,126.9256049,37.19392032
3124055,경기도 화성시 반월동,127.0615139,37.22619496
3123054,경기도 김포시 풍무동,126.7246578,37.60462711
3123061,경기도 김포시 김포본동,126.6938983,37.62403255
3124015,경기도 화성시 남양읍,126.8274194,37.21780718
3124038,경기도 화성시 팔탄면,126.87196,37.146922
3125036,경기도 광주시 남종면,127.3175318,37.50369649
3124067,경기도 화성시 새솔동,126.9162557,37.15266119
3124014,경기도 화성시 향남읍,126.9278848,37.10865365
3125011,경기도 광주시 오포읍,127.2158017,37.36550086
3124031,경기도 화성시 매송면,126.8983619,37.26320841
3124056,경기도 화성시 기배동,126.9816808,37.22373068
3124039,경기도 화성시 장안면,126.8501101,37.08204448
3124037,경기도 화성시 서신면,126.7159761,37.15903506
3124052,경기도 화성시 진안동,127.0547801,37.20829671
3124060,경기도 화성시 동탄2동,127.0727325,37.19809484
3126051,경기도 양주시 양주1동,127.0266741,37.78968014
3124043,경기도 화성시 정남면,126.986005,37.16118038
3125053,경기도 광주시 광남동,127.218712,37.38924386
3126011,경기도 양주시 백석읍,126.9778752,37.78691213
3125012,경기도 광주시 초월읍,127.314704,37.39532025
3124053,경기도 화성시 병점1동,127.0456821,37.21889555
3124057,경기도 화성시 화산동,127.0038828,37.20121289
3125034,경기도 광주시 도척면,127.3209981,37.30873076
3124061,경기도 화성시 동탄1동,127.0727325,37.19809484
3124065,경기도 화성시 동탄5동,127.1415195,37.20771378
3127034,경기도 포천시 신북면,127.1731626,37.94415924
3124064,경기도 화성시 동탄4동,127.1102634,37.19433087
3126055,경기도 양주시 회천3동,127.068011,37.82545041
3126056,경기도 양주시 회천4동,127.1026971,37.85155245
3126031,경기도 양주시 은현면,127.0290243,37.88058288
3124066,경기도 화성시 동탄6동,127.088547,37.17264139
3126033,경기도 양주시 광적면,126.9574732,37.8364721
3125014,경기도 광주시 곤지암읍,127.3859423,37.36535221
3125051,경기도 광주시 경안동,127.251268,37.40018947
3125035,경기도 광주시 퇴촌면,127.3293777,37.44815957
3128011,경기도 여주시 가남읍,127.5835735,37.2129628
3125038,경기도 광주시 남한산성면,127.2277139,37.45799025
3127038,경기도 포천시 이동면,127.396069,38.05042596
3127011,경기도 포천시 소흘읍,127.1517356,37.79415503
3127039,경기도 포천시 영북면,127.2820619,38.07687414
3125052,경기도 광주시 송정동,127.2535784,37.41036341
3127032,경기도 포천시 내촌면,127.2367422,37.80463955
3126032,경기도 양주시 남면,126.9763997,37.89625292
3126053,경기도 양주시 회천1동,127.0669244,37.84507635
3126034,경기도 양주시 장흥면,126.9685092,37.71748906
3128052,경기도 여주시 중앙동,127.6193588,37.27003787
3128034,경기도 여주시 금사면,127.5035122,37.39669072
3126052,경기도 양주시 양주2동,127.0745792,37.804359
3126054,경기도 양주시 회천2동,127.0443015,37.8185982
3128035,경기도 여주시 산북면,127.4405481,37.40141537
3127040,경기도 포천시 관인면,127.2202725,38.12381182
3127031,경기도 포천시 군내면,127.2299357,37.880991
3127051,경기도 포천시 포천동,127.1832455,37.89965971
3127036,경기도 포천시 영중면,127.2417257,38.00032375
3127033,경기도 포천시 가산면,127.2008696,37.83578795
3127037,경기도 포천시 일동면,127.3420611,37.97298603
3135031,경기도 연천군 군남면,127.0396437,38.07023969
3135037,경기도 연천군 중면,127.0166302,38.16805147
3127035,경기도 포천시 창수면,127.171608,38.01348093
3135032,경기도 연천군 청산면,127.1122413,38.01547587
3128036,경기도 여주시 대신면,127.5991266,37.37069419
3128038,경기도 여주시 강천면,127.7283978,37.30171248
3127041,경기도 포천시 화현면,127.2881777,37.90214902
3128032,경기도 여주시 능서면,127.5910994,37.30270106
3127052,경기도 포천시 선단동,127.1675315,37.87765651
3128033,경기도 여주시 흥천면,127.529722,37.34279612
3137032,경기도 가평군 청평면,127.4271671,37.72627804
3128031,경기도 여주시 점동면,127.6873899,37.18947177
3137033,경기도 가평군 상면,127.3206368,37.79941675
3138032,경기도 양평군 강하면,127.4170113,37.46482099
3135033,경기도 연천군 백학면,126.8903746,38.03210932
3135035,경기도 연천군 왕징면,126.9366251,38.0941263
3128037,경기도 여주시 북내면,127.6939143,37.35538048
3128051,경기도 여주시 여흥동,127.6464966,37.25635736
3135011,경기도 연천군 연천읍,127.1034527,38.11376005
3135012,경기도 연천군 전곡읍,127.0315305,37.99579449
32000,강원도,128.2207407,37.81346622
3138036,경기도 양평군 단월면,127.6596227,37.57042354
3128053,경기도 여주시 오학동,127.6478894,37.3348899
3138037,경기도 양평군 청운면,127.7667398,37.54722145
3137035,경기도 가평군 북면,127.4842693,37.95947736
3135034,경기도 연천군 미산면,126.9747781,38.03514106
3138011,경기도 양평군 양평읍,127.518485,37.49124301
3137011,경기도 가평군 가평읍,127.4762438,37.80820795
37000,경상북도,128.6367204,36.36201476
3135036,경기도 연천군 신서면,127.1137328,38.17739807
3137031,경기도 가평군 설악면,127.486374,37.65013183
36000,전라남도,126.9794506,34.89172048
3135038,경기도 연천군 장남면,126.8638855,37.9955395
3138038,경기도 양평군 양동면,127.7510817,37.4421274
3137036,경기도 가평군 조종면,127.3635177,37.86930637
3138040,경기도 양평군 용문면,127.5870144,37.51434657
3138034,경기도 양평군 옥천면,127.4886831,37.55163303
34000,충청남도,126.8317157,36.52184469
3138031,경기도 양평군 강상면,127.471425,37.46370191
3138035,경기도 양평군 서종면,127.4082939,37.61207183
38000,경상남도,128.3742168,35.36836192
3138033,경기도 양평군 양서면,127.3755518,37.54082705
3138039,경기도 양평군 지평면,127.6566674,37.45281266
35000,전라북도,127.1338807,35.72829341
39000,제주특별자치도,126.5482535,33.38096541
3138041,경기도 양평군 개군면,127.5475798,37.439906
33000,충청북도,127.5720188,36.63590791
